[
 {
  "category":"Biurowce",
  "source":"http://www.poznan.pl/mim/inwestycje/biurowce,poi,4661/",
  "points":[
   {
    "lat":52.400830599999999,
    "lon":16.9253395,
    "name":"Andersia Business Centre",
    "address":"pl. Andersa 7"
   },
   {
    "lat":52.400830599999999,
    "lon":16.9253395,
    "name":"Andersia Tower",
    "address":"Pl. Andersa 3"
   },
   {
    "lat":52.400830599999999,
    "lon":16.9253395,
    "name":"Pozna\u0144skie Centrum Finansowe",
    "address":"Pl. Andersa 5"
   },
   {
    "lat":52.3860904,
    "lon":16.9044247,
    "name":"Skalar Office Center",
    "address":"Ul. G\u00f3recka 1"
   },
   {
    "lat":52.403613399999998,
    "lon":16.910682699999999,
    "name":"Globis",
    "address":"U. Roosevelta 18"
   },
   {
    "lat":false,
    "lon":false,
    "name":"Malta House",
    "address":"ul. Abpa Baraniaka 6"
   },
   {
    "lat":52.411245950000001,
    "lon":16.9409836910522,
    "name":"Szyperska Office Center",
    "address":"Ul. Szyperska 14"
   },
   {
    "lat":52.408422850000001,
    "lon":16.922264909928899,
    "name":"Okr\u0105glak",
    "address":"Ul. Miel\u017cy\u0144skiego 14"
   },
   {
    "lat":52.4076448,
    "lon":16.938639768314601,
    "name":"Wo\u017ana 14",
    "address":"Ul. Wo\u017ana 14"
   },
   {
    "lat":52.408645,
    "lon":16.9436246,
    "name":"Nowa Sienna etap 2",
    "address":"Ulica Tylne Chwaliszewo 23"
   },
   {
    "lat":52.427493800000001,
    "lon":16.9475558,
    "name":"Centrum Biurowe Cytadela",
    "address":"Ul. Szel\u0105gowska 29/30"
   },
   {
    "lat":52.382148399999998,
    "lon":16.938929278486398,
    "name":"Budynek biurowy Rataje 164",
    "address":"Ul. Rataje 164"
   }
  ],
  "count":12
 },
 {
  "category":"Centra handlowe",
  "source":"http://www.poznan.pl/mim/main/centra-handlowe,poi,670/",
  "points":[
   {
    "lat":52.354635899999998,
    "lon":16.835348449155401,
    "name":"Auchan - Komorniki",
    "address":"ul. G\u0142ogowska 432"
   },
   {
    "lat":52.379324799999999,
    "lon":16.982887600000002,
    "name":"Park Handlowy Franowo",
    "address":"ul. Szwedzka 6"
   },
   {
    "lat":52.405432599999997,
    "lon":16.931479299999999,
    "name":"Centrum Handlowo-Biurowe Kupiec Pozna\u0144ski",
    "address":"pl. Wiosny Lud\u00f3w 2"
   },
   {
    "lat":52.413570700000001,
    "lon":16.915119300000001,
    "name":"ETC - Centrum Handlowe",
    "address":"ul. Pozna\u0144ska 6"
   },
   {
    "lat":52.387999999999998,
    "lon":16.891200000000001,
    "name":"G\u00f3rczy\u0144skie Centrum Handlowe",
    "address":"ul. G\u0142ogowska 138"
   },
   {
    "lat":52.383561399999998,
    "lon":16.991995200000002,
    "name":"M 1",
    "address":"ul. Szwajcarska 14"
   },
   {
    "lat":52.380423100000002,
    "lon":16.896419999999999,
    "name":"Panorama Centrum Handlowe",
    "address":"ul. G\u00f3recka 30"
   },
   {
    "lat":false,
    "lon":false,
    "name":"Pasa\u017c Rondo",
    "address":"ul. Zamenhofa 133"
   },
   {
    "lat":52.402067600000002,
    "lon":16.925865900000002,
    "name":"Stary Browar",
    "address":"ul. P\u00f3\u0142wiejska 42"
   },
   {
    "lat":52.4107707,
    "lon":16.8622014,
    "name":"King Cross Marcelin",
    "address":"ul. Bukowska 156"
   },
   {
    "lat":52.4425928,
    "lon":16.918267700000001,
    "name":"Centrum Handlowo - Rozrywkowe Pozna\u0144 Plaza",
    "address":"ul. Kaspra Dru\u017cbickiego 1"
   },
   {
    "lat":52.356728099999998,
    "lon":16.975576499999999,
    "name":"Centrum Outlet FACTORY Pozna\u0144",
    "address":"ul. D\u0119biecka 1"
   },
   {
    "lat":52.437510500000002,
    "lon":16.9172555,
    "name":"Galeria Pestka",
    "address":"Al. Solidarno\u015b\u0107i 47"
   },
   {
    "lat":52.4460944,
    "lon":16.9069839,
    "name":"Galeria Handlowa ARKADA",
    "address":"ul. Obornicka 229"
   },
   {
    "lat":false,
    "lon":false,
    "name":"Galeria Malta",
    "address":"ul. Abpa A. Baraniaka 8"
   },
   {
    "lat":52.406997799999999,
    "lon":16.920191200000001,
    "name":"Galeria MM",
    "address":"ul. \u015aw. Marcin 24"
   }
  ],
  "count":16
 },
 {
  "category":"Puby i kluby",
  "source":"http://www.poznan.pl/mim/turystyka/-,poi,92,6117/",
  "points":[
   {
    "lat":false,
    "lon":false,
    "name":"Blue Note Jazz Club",
    "address":"ul. Ko\u015bciuszki 79"
   },
   {
    "lat":52.408408600000001,
    "lon":16.9347165,
    "name":"Dramat",
    "address":"Stary Rynek 41"
   },
   {
    "lat":52.409353500000002,
    "lon":16.932091100000001,
    "name":"Dragon Pub",
    "address":"ul. Zamkowa 3"
   },
   {
    "lat":52.406997799999999,
    "lon":16.920191200000001,
    "name":"Jameson Bilard Club",
    "address":"ul. \u015aw. Marcin 26"
   },
   {
    "lat":52.408918200000002,
    "lon":16.933506300000001,
    "name":"Londoner",
    "address":"Stary Rynek 90"
   },
   {
    "lat":false,
    "lon":false,
    "name":"Muchos Patatos",
    "address":"ul. Nowowiejskiego 13/15"
   },
   {
    "lat":52.396521700000001,
    "lon":16.903570599999998,
    "name":"Pijalnia Piwa Kominek",
    "address":"ul. Ma\u0142eckiego 26"
   },
   {
    "lat":52.4093935,
    "lon":16.926985913335301,
    "name":"Pod Minog\u0105",
    "address":"ul. Nowowiejskiego 8"
   },
   {
    "lat":52.402265800000002,
    "lon":16.922016500000002,
    "name":"The Dubliner",
    "address":"ul. Al. Niepodleg\u0142o\u015bci 8/82"
   },
   {
    "lat":52.411105599999999,
    "lon":16.913374000000001,
    "name":"U Franklina",
    "address":"ul. Roosevelta 10"
   },
   {
    "lat":52.4093935,
    "lon":16.926985913335301,
    "name":"W Starym Kinie",
    "address":"ul. Nowowiejskiego 8"
   },
   {
    "lat":52.405883799999998,
    "lon":16.9204808,
    "name":"Academic Pub",
    "address":"ul. Taczaka 11"
   },
   {
    "lat":52.405118299999998,
    "lon":16.924925999999999,
    "name":"Zakr\u0119cona Bila",
    "address":"ul. Ratajczaka 20"
   },
   {
    "lat":52.406954800000001,
    "lon":16.9333262,
    "name":"Klubokawiarnia Proletaryat",
    "address":"ul. Wroc\u0142awska 9"
   },
   {
    "lat":52.405490499999999,
    "lon":16.920861800000001,
    "name":"Colloqvium Pub / Kolokwium",
    "address":"ul. Taczaka 10"
   },
   {
    "lat":52.405490499999999,
    "lon":16.920861800000001,
    "name":"Corner Pub",
    "address":"ul. Taczaka 10"
   },
   {
    "lat":52.409054500000003,
    "lon":16.936513999999999,
    "name":"Brogans First Stage",
    "address":"ul. Szewska 20a"
   },
   {
    "lat":52.407840299999997,
    "lon":16.934666587894,
    "name":"Shark",
    "address":"Stary Rynek 48"
   },
   {
    "lat":52.402067600000002,
    "lon":16.925865900000002,
    "name":"SQ klub",
    "address":"ul. P\u00f3\u0142wiejska 42"
   },
   {
    "lat":false,
    "lon":false,
    "name":"U Bazyla",
    "address":"ul.\u015aw. Wojciech 28"
   },
   {
    "lat":52.409262599999998,
    "lon":16.930624699999999,
    "name":"Room 55",
    "address":"Stary Rynek 80/82"
   },
   {
    "lat":52.402067600000002,
    "lon":16.925865900000002,
    "name":"Browar Pub",
    "address":"ul. P\u00f3\u0142wiejska 42"
   },
   {
    "lat":false,
    "lon":false,
    "name":"Klub Eskulap",
    "address":"ul. Przybyszewskiego 39"
   },
   {
    "lat":false,
    "lon":false,
    "name":"Bogota Club",
    "address":"CK Zamek"
   },
   {
    "lat":52.400069049999999,
    "lon":16.9811697934488,
    "name":"U kibic\u00f3w na Malcie",
    "address":"ul. Wiankowa 2"
   },
   {
    "lat":52.405752100000001,
    "lon":16.9219477438177,
    "name":"Klub-Galeria SHISHA",
    "address":"ul. Taczaka 15"
   },
   {
    "lat":52.408079999999998,
    "lon":16.938672934245901,
    "name":"Cafe Mi\u0119sna",
    "address":"ul. Garbary 62"
   },
   {
    "lat":52.408147800000002,
    "lon":16.936279764016199,
    "name":"Cactus Factoria",
    "address":"ul. \u015alusarska 5"
   },
   {
    "lat":52.407268299999998,
    "lon":16.9342428,
    "name":"Piwiarnia Warka",
    "address":"ul.\u015awi\u0119tos\u0142awska 12"
   },
   {
    "lat":52.409992500000001,
    "lon":16.935091700000001,
    "name":"Van Gogh",
    "address":"ul. \u017bydowska 12"
   },
   {
    "lat":false,
    "lon":false,
    "name":"Bilaboom Pub Bilardowy",
    "address":"ul. Mickiewicza 32"
   },
   {
    "lat":false,
    "lon":false,
    "name":"Dylemat",
    "address":"ul. Mickiewicza 27"
   },
   {
    "lat":52.407604599999999,
    "lon":16.915512100000001,
    "name":"Hades Klub Bilardowy",
    "address":"ul. \u015awi\u0119ty Marcin 80/82"
   },
   {
    "lat":52.406997799999999,
    "lon":16.920191200000001,
    "name":"Cooliozum - klub pi\u0142karzykowy",
    "address":"ul. \u015aw. Marcin 45"
   },
   {
    "lat":52.408519599999998,
    "lon":16.936712700000001,
    "name":"Black Ball Pool Club - Klub Bilardowy",
    "address":"ul. Wielka 21"
   },
   {
    "lat":52.407963700000003,
    "lon":16.933297100000001,
    "name":"Meskalina",
    "address":"ul. Stary Rynek 6"
   },
   {
    "lat":52.406997799999999,
    "lon":16.920191200000001,
    "name":"Blueberry Bar",
    "address":"ul. \u015aw. Marcin 40"
   },
   {
    "lat":52.405408100000002,
    "lon":16.923613400000001,
    "name":"Skup Butelek",
    "address":"ul. Taczaka 22"
   },
   {
    "lat":52.409054500000003,
    "lon":16.936513999999999,
    "name":"Bunuba Cafe",
    "address":"ul. Szewska 20A"
   },
   {
    "lat":52.408398099999999,
    "lon":16.933903900000001,
    "name":"Fuego",
    "address":"Stary Rynek 28"
   },
   {
    "lat":false,
    "lon":false,
    "name":"Za kulisami",
    "address":"ul. Wodna 24 / Klasztorna 8"
   },
   {
    "lat":false,
    "lon":false,
    "name":"Setka Pub",
    "address":"ul. \u015aw Marcin 8"
   },
   {
    "lat":52.409878599999999,
    "lon":16.935042899999999,
    "name":"PRL Pub",
    "address":"ul. \u017bydowska 11"
   },
   {
    "lat":52.404887700000003,
    "lon":16.936094600000001,
    "name":"12ft Snooker Pub",
    "address":"ul. Za Bramk\u0105 10"
   },
   {
    "lat":52.409796800000002,
    "lon":16.927021400000001,
    "name":"Wine Bar & Tapas",
    "address":"ul. Nowowiejskiego 12"
   },
   {
    "lat":52.407499600000001,
    "lon":16.931180000000001,
    "name":"The Vikings",
    "address":"ul. Murna 3"
   },
   {
    "lat":52.4042344,
    "lon":16.9283714,
    "name":"Baker Street",
    "address":"ul. Piekary 22/23"
   },
   {
    "lat":52.407932099999996,
    "lon":16.933905299999999,
    "name":"Drink Bar Tropicana",
    "address":"Stary Rynek 10"
   },
   {
    "lat":52.405177100000003,
    "lon":16.922353070781501,
    "name":"\u017b\u00f3\u0142ty Balonik Cafe & Pub",
    "address":"ul. Taczaka 7"
   },
   {
    "lat":52.409934,
    "lon":16.939294700000001,
    "name":"Tekila",
    "address":"ul. Szyperska 3"
   },
   {
    "lat":false,
    "lon":false,
    "name":"Pod Pretekstem",
    "address":"\u015aw. Marcin 80/82"
   },
   {
    "lat":52.407666499999998,
    "lon":16.935043499999999,
    "name":"Tanner's Irish Pub",
    "address":"ul. Klasztorna 17"
   },
   {
    "lat":52.407983399999999,
    "lon":16.935595299999999,
    "name":"BASILIUM",
    "address":"ul. Wo\u017ana 21"
   },
   {
    "lat":52.407107699999997,
    "lon":16.9331079,
    "name":"Tunel",
    "address":"ul. Wroc\u0142awska 4"
   },
   {
    "lat":52.411918700000001,
    "lon":16.919525,
    "name":"Klub Balzac",
    "address":"Al. Niepodleg\u0142o\u015bci 80/82"
   },
   {
    "lat":52.434785699999999,
    "lon":16.912661499999999,
    "name":"Cafe Pod Papugami",
    "address":"ul. Pi\u0105tkowska 149"
   },
   {
    "lat":52.407799500000003,
    "lon":16.934535799999999,
    "name":"Czerwona Papryka",
    "address":"Stary Rynek 49"
   },
   {
    "lat":52.409029500000003,
    "lon":16.932647100000001,
    "name":"Seabass Pub",
    "address":"ul. Zamkowa 5"
   },
   {
    "lat":52.406553000000002,
    "lon":16.933167900000001,
    "name":"Ku\u017ania",
    "address":"ul. Wroc\u0142awska 17"
   },
   {
    "lat":52.4101705,
    "lon":16.9364949,
    "name":"Pod Czerwonym Diab\u0142em",
    "address":"ul. Szewska 7"
   },
   {
    "lat":52.406182600000001,
    "lon":16.933195999999999,
    "name":"Od zmierzchu do \u015bwitu",
    "address":"ul. Wroc\u0142awska 23"
   },
   {
    "lat":52.403968650000003,
    "lon":16.936707464136202,
    "name":"Old School Pub Piwomania",
    "address":"Pl. Bernardy\u0144ski 2/2"
   },
   {
    "lat":false,
    "lon":false,
    "name":"Old Skull Pub",
    "address":"ul. Miko\u0142aja Kopernika 10 A"
   },
   {
    "lat":52.406997799999999,
    "lon":16.920191200000001,
    "name":"Kluboksi\u0119garnia G\u0141O\u015aNA",
    "address":"ul. \u015bw. Marcin 30"
   },
   {
    "lat":52.4101705,
    "lon":16.9364949,
    "name":"Rock Gara\u017c",
    "address":"ul. Szewska 7"
   },
   {
    "lat":52.405408100000002,
    "lon":16.923613400000001,
    "name":"TANKI PUB",
    "address":"ul.Taczaka 22"
   },
   {
    "lat":52.408884299999997,
    "lon":16.933927499999999,
    "name":"Bia\u0142e Wino i Owoce",
    "address":"Stary Rynek 92"
   },
   {
    "lat":52.407604599999999,
    "lon":16.915512100000001,
    "name":"Klub Bilardowy HADES",
    "address":"ul. \u015awi\u0119ty Marcin 80/82"
   },
   {
    "lat":52.4073171,
    "lon":16.9332113,
    "name":"RockArt",
    "address":"ul. Wroc\u0142awska 2"
   },
   {
    "lat":52.406553000000002,
    "lon":16.933167900000001,
    "name":"Ice Bar Pozna\u0144",
    "address":"ul. Wroc\u0142awska 17"
   },
   {
    "lat":52.407901799999998,
    "lon":16.9324002,
    "name":"Warzelnia",
    "address":"Stary Rynek 71"
   },
   {
    "lat":52.401719700000001,
    "lon":16.930597757532801,
    "name":"Twoja Stara",
    "address":"ul. Rybaki 13"
   },
   {
    "lat":52.4094987,
    "lon":16.934920600000002,
    "name":"Lot Chmiela",
    "address":"ul. \u017bydowska 4"
   },
   {
    "lat":52.4078971,
    "lon":16.929372699999998,
    "name":"Pacha Pozna\u0144",
    "address":"ul. Paderewskiego 10"
   },
   {
    "lat":52.416308399999998,
    "lon":16.928729000000001,
    "name":"alibi Club Poznan",
    "address":"al. Niepodleg\u0142o\u015bci 8a"
   },
   {
    "lat":52.4106442,
    "lon":16.926677779210799,
    "name":"Mama\u0142yga",
    "address":"ul. Feliksa Nowowiejskiego 17"
   }
  ],
  "count":76
 },
 {
  "category":"Licea og\u00f3lnokszta\u0142c\u0105ce",
  "source":"http://www.poznan.pl/mim/oswiata/liceum-ogolnoksztalcace,poi,2286,8884/",
  "points":[
   {
    "lat":52.403989699999997,
    "lon":16.9383172,
    "name":"Liceum Og\u00f3lnokszta\u0142c\u0105ce \u015bw. Marii Magdaleny",
    "address":"ul. Garbary 24"
   },
   {
    "lat":52.414398900000002,
    "lon":16.799390200000001,
    "name":"I Liceum Og\u00f3lnokszta\u0142c\u0105ce im. Karola Marcinkowskiego w ZSO Nr 1",
    "address":"ul. Bukowska 16"
   },
   {
    "lat":false,
    "lon":false,
    "name":"II Liceum Og\u00f3lnokszta\u0142c\u0105ce w ZSO Nr 12",
    "address":"ul. Matejki 8/10"
   },
   {
    "lat":52.404379149999997,
    "lon":16.932673551243798,
    "name":"III Liceum Og\u00f3lnokszta\u0142c\u0105ce im. \u015bw. Jana Kantego",
    "address":"ul. Strzelecka 10"
   },
   {
    "lat":52.415613899999997,
    "lon":16.8732313,
    "name":"IV Liceum Og\u00f3lnokszta\u0142c\u0105ce im. Komisji Edukacji Narodowej",
    "address":"ul. Swojska 6"
   },
   {
    "lat":52.385457549999998,
    "lon":16.9206489114144,
    "name":"V Liceum Og\u00f3lnokszta\u0142c\u0105ce im. Klaudyny Potockiej",
    "address":"ul. Zmartwychwstanc\u00f3w 10"
   },
   {
    "lat":false,
    "lon":false,
    "name":"VI Liceum Og\u00f3lnokszta\u0142c\u0105ce w ZSO Nr 7",
    "address":"ul. Krakowska 17a"
   },
   {
    "lat":false,
    "lon":false,
    "name":"VII Liceum Og\u00f3lnokszta\u0142c\u0105ce im. D\u0105br\u00f3wki w ZSO Nr 10",
    "address":"ul. \u017beromskiego 8/12"
   },
   {
    "lat":52.390474400000002,
    "lon":16.894319500000002,
    "name":"VIII Liceum Og\u00f3lnokszta\u0142c\u0105ce im. Adama Mickiewicza",
    "address":"ul. G\u0142ogowska 92"
   },
   {
    "lat":52.429237649999997,
    "lon":16.9293064781845,
    "name":"IX Liceum Og\u00f3lnokszta\u0142c\u0105ce im. Karola Libelta",
    "address":"ul. Warzywna 24"
   },
   {
    "lat":52.386226200000003,
    "lon":16.951956783333198,
    "name":"X Liceum Og\u00f3lnokszta\u0142c\u0105ce w ZSO nr 8",
    "address":"os. Rzeczypospolitej 111"
   },
   {
    "lat":false,
    "lon":false,
    "name":"XI Liceum Og\u00f3lnokszta\u0142c\u0105ce",
    "address":"ul. \u015aciegiennego 134"
   },
   {
    "lat":false,
    "lon":false,
    "name":"XII Liceum Og\u00f3lnokszta\u0142c\u0105ce",
    "address":"ul. Gen. T. Kutrzeby 8"
   },
   {
    "lat":52.388970399999998,
    "lon":16.9432571,
    "name":"XIV Liceum Og\u00f3lnokszta\u0142c\u0105ce",
    "address":"os. Piastowskie 106"
   },
   {
    "lat":52.454368549999998,
    "lon":16.914637052988802,
    "name":"XV Liceum Og\u00f3lnokszta\u0142c\u0105ce im. prof. Wiktora Degi w ZSO nr 15",
    "address":"os. Boles\u0142awa Chrobrego 107"
   },
   {
    "lat":52.340378000000001,
    "lon":16.991929262179699,
    "name":"XVI Liceum Og\u00f3lnokszta\u0142c\u0105ce w ZSO Nr 2",
    "address":"ul. Tarnowska 27"
   },
   {
    "lat":52.384716900000001,
    "lon":16.9773188782255,
    "name":"XVII Liceum Og\u00f3lnokszta\u0142c\u0105ce w ZSO Nr 4",
    "address":"os. Czecha 59"
   },
   {
    "lat":52.407716499999999,
    "lon":16.881136699999999,
    "name":"XVIII Liceum Og\u00f3lnokszta\u0142c\u0105ce",
    "address":"ul. Szamotulska 33"
   },
   {
    "lat":false,
    "lon":false,
    "name":"XIX Liceum Og\u00f3lnokszta\u0142c\u0105ce",
    "address":"ul. 28 Czerwca1956r. 352/360"
   },
   {
    "lat":52.441054399999999,
    "lon":16.936370023965999,
    "name":"XX Liceum Og\u00f3lnokszta\u0142c\u0105ce",
    "address":"os. Wichrowe Wzg\u00f3rze 111"
   },
   {
    "lat":52.400720200000002,
    "lon":16.930229000000001,
    "name":"XXI Liceum Og\u00f3lnokszta\u0142c\u0105ce",
    "address":"ul. Rybaki 17"
   },
   {
    "lat":52.401251600000002,
    "lon":16.939418799999999,
    "name":"XXIII Liceum Og\u00f3lnokszta\u0142c\u0105ce",
    "address":"ul. Kazimierza Wielkiego 17"
   },
   {
    "lat":52.429598499999997,
    "lon":16.907640021533702,
    "name":"XXV Liceum Og\u00f3lnokszta\u0142c\u0105ce",
    "address":"ul. Widna 1"
   },
   {
    "lat":false,
    "lon":false,
    "name":"XXVI Liceum Og\u00f3lnokszta\u0142c\u0105ce",
    "address":"ul. D\u0105browskiego 163"
   },
   {
    "lat":52.387269349999997,
    "lon":16.870103956348402,
    "name":"XXVIII Liceum Og\u00f3lnokszta\u0142c\u0105ce",
    "address":"ul. Raszy\u0144ska 48"
   },
   {
    "lat":52.372335300000003,
    "lon":16.897391299999999,
    "name":"XXIX Liceum Og\u00f3lnokszta\u0142c\u0105ce",
    "address":"ul. \u015awierkowa 8"
   },
   {
    "lat":52.4107859,
    "lon":16.923132800000001,
    "name":"XXX Liceum Og\u00f3lnokszta\u0142c\u0105ce",
    "address":"ul. Dzia\u0142y\u0144skich 4/5"
   },
   {
    "lat":52.4087222,
    "lon":16.921540799999999,
    "name":"XXXII Liceum Og\u00f3lnokszta\u0142c\u0105ce",
    "address":"ul. Fredry 13"
   },
   {
    "lat":52.398586700000003,
    "lon":16.894691804839599,
    "name":"XXXIII Liceum Og\u00f3lnokszta\u0142c\u0105ce z Oddzia\u0142ami Sportowymi",
    "address":"ul. Stanis\u0142awa Wyspia\u0144skiego 27"
   },
   {
    "lat":52.425276850000003,
    "lon":16.946438166157002,
    "name":"XXXIV Liceum Og\u00f3lnokszta\u0142c\u0105ce",
    "address":"ul. Prze\u0142ajowa 4"
   },
   {
    "lat":52.428304850000004,
    "lon":16.927784990579902,
    "name":"XXXV Liceum Og\u00f3lnokszta\u0142c\u0105ce z Oddzia\u0142ami Sportowymi",
    "address":"ul. Warzywna 19"
   },
   {
    "lat":52.39262085,
    "lon":16.975773056317902,
    "name":"Liceum Og\u00f3lnokszta\u0142c\u0105ce w ZSMS",
    "address":"os. Tysi\u0105clecia 43"
   },
   {
    "lat":52.500475999999999,
    "lon":16.939344699999999,
    "name":"Liceum Og\u00f3lnokszta\u0142c\u0105ce w Tarnowie Podg\u00f3rnym",
    "address":"ul. Pozna\u0144ska 118"
   },
   {
    "lat":52.500475999999999,
    "lon":16.939344699999999,
    "name":"Liceum Og\u00f3lnokszta\u0142c\u0105ce im. Genera\u0142owej Jadwigi Zamoyskiej w K\u00f3rniku",
    "address":"ul. Pozna\u0144ska 2"
   },
   {
    "lat":false,
    "lon":false,
    "name":"XXXI Liceum Og\u00f3lnokszta\u0142c\u0105ce",
    "address":"ul. \u015aniadeckich 54/58"
   },
   {
    "lat":52.465011650000001,
    "lon":16.9136393626647,
    "name":"Publiczne Liceum Og\u00f3lnokszta\u0142c\u0105ce Zakonu Pijar\u00f3w im. \u015bw. J\u00f3zefa Kalasancjusza w Poznaniu",
    "address":"os. Jana III Sobieskiego 114"
   }
  ],
  "count":36
 },
 {
  "category":"Muzea",
  "source":"http://www.poznan.pl/mim/main/muzea-w-poznaniu,poi,202,12/",
  "points":[
   {
    "lat":false,
    "lon":false,
    "name":"Makiety Dawnego Poznania",
    "address":"podziemia klasztoru oo. Franciszkan\u00f3w"
   },
   {
    "lat":52.407418800000002,
    "lon":16.934736999999998,
    "name":"Muzeum Archeologiczne (Pa\u0142ac G\u00f3rk\u00f3w)",
    "address":"ul. Wodna 27"
   },
   {
    "lat":false,
    "lon":false,
    "name":"Rezerwat Archeologiczny",
    "address":"ul. Ks. I. Posadzego 3"
   },
   {
    "lat":52.412568700000001,
    "lon":16.946935199999999,
    "name":"Muzeum Archidiecezjalne - Akademia Lubra\u0144skiego",
    "address":"ul. Lubra\u0144skiego 1"
   },
   {
    "lat":52.405428200000003,
    "lon":16.939872900000001,
    "name":"Muzeum Bambr\u00f3w Pozna\u0144skich",
    "address":"ul. Mostowa 7"
   },
   {
    "lat":false,
    "lon":false,
    "name":"Muzeum Broni Pancernej CSWL",
    "address":"ul. Wojska Polskiego 84"
   },
   {
    "lat":52.407269800000002,
    "lon":16.9288135,
    "name":"Muzeum Farmacji",
    "address":"al. Marcinkowskiego 11"
   },
   {
    "lat":52.407269800000002,
    "lon":16.9288135,
    "name":"Muzeum Narodowe, Galeria Malarstwa i Rze\u017aby",
    "address":"Al. Marcinkowskiego 9"
   },
   {
    "lat":false,
    "lon":false,
    "name":"Muzeum Etnograficzne, Oddzia\u0142 Muzeum Narodowego",
    "address":"ul. Grobla 25/ wej\u015bcie od ul. Mostowej 7"
   },
   {
    "lat":52.40856625,
    "lon":16.934017650000001,
    "name":"Muzeum Historii Miasta Poznania, Oddzia\u0142 Muzeum Narodowego",
    "address":"Ratusz"
   },
   {
    "lat":52.408038699999999,
    "lon":16.934767439936302,
    "name":"Muzeum Instrument\u00f3w Muzycznych, Oddzia\u0142 Muzeum Narodowego",
    "address":"Stary Rynek 45"
   },
   {
    "lat":52.409283000000002,
    "lon":16.931357299999998,
    "name":"Muzeum Sztuk U\u017cytkowych, Oddzia\u0142 Muzeum Narodowego",
    "address":"G\u00f3ra Przemys\u0142a 1"
   },
   {
    "lat":52.407933399999997,
    "lon":16.9337947,
    "name":"Wielkopolskie Muzeum Wojskowe, Oddzia\u0142 Muzeum Narodowego",
    "address":"Stary Rynek 9"
   },
   {
    "lat":52.408004699999999,
    "lon":16.937658142559801,
    "name":"Wielkopolskie Muzeum Walk Niepodleg\u0142o\u015bciowych w Poznaniu",
    "address":"ul. Wo\u017ana 12"
   },
   {
    "lat":52.415844700000001,
    "lon":16.870651800000001,
    "name":"Muzeum Martyrologii Wielkopolan Fort VII , oddzia\u0142 Wielkopolskiego Muzeum Walk Niepodleg\u0142o\u015bciowych w Poznaniu",
    "address":"Al. Polska"
   },
   {
    "lat":false,
    "lon":false,
    "name":"Muzeum Armii \"Pozna\u0144\", oddzia\u0142 Wielkopolskiego Muzeum Walk Niepodleg\u0142o\u015bciowych",
    "address":"Al.Armii Pozna\u0144 Park Cytadela"
   },
   {
    "lat":52.408244099999997,
    "lon":16.9330806,
    "name":"Muzeum Powstania Wielkopolskiego 1918-1919, oddzia\u0142 Wielkopolskiego Muzeum Walk Niepodleg\u0142o\u015bciowych (Odwach)",
    "address":"Stary Rynek 3"
   },
   {
    "lat":52.4213241,
    "lon":16.933959439401399,
    "name":"Muzeum Uzbrojenia, Cytadela Pozna\u0144ska, oddzia\u0142 Wielkopolskiego Muzeum Walk Niepodleg\u0142o\u015bciowych w Poznaniu",
    "address":"Park Cytadela"
   },
   {
    "lat":false,
    "lon":false,
    "name":"Muzeum Powstania Pozna\u0144skiego - Czerwiec 1956 r., oddzia\u0142 Wielkopolskiego Muzeum Walk Niepodleg\u0142o\u015bciowych w Poznaniu",
    "address":"ul. \u015aw. Marcin 80/82"
   },
   {
    "lat":52.441287500000001,
    "lon":16.807945018743901,
    "name":"Schronu Przeciwatomowy Prezydenta Poznania, oddzia\u0142 Wielkopolskiego Muzeum Walk Niepodleg\u0142o\u015bciowych w Poznaniu",
    "address":"ul. S\u0142upska 62"
   },
   {
    "lat":false,
    "lon":false,
    "name":"Mieszkanie-Pracownia Kazimiery I\u0142\u0142akowicz\u00f3wny, Oddzia\u0142 Biblioteki Raczy\u0144skich",
    "address":"ul. Gajowa 4 m. 8"
   },
   {
    "lat":52.408881200000003,
    "lon":16.932718099999999,
    "name":"Muzeum Literackie Henryka Sienkiewicza, Oddzia\u0142 Biblioteki Raczy\u0144skich",
    "address":"Stary Rynek 84"
   },
   {
    "lat":52.410450099999998,
    "lon":16.9343553,
    "name":"Pracownia-Muzeum J\u00f3zefa I. Kraszewskiego, Oddzia\u0142 Biblioteki Raczy\u0144skich",
    "address":"ul. Wroniecka 14"
   },
   {
    "lat":false,
    "lon":false,
    "name":"Muzeum Komunikacji Miejskiej MPK Pozna\u0144",
    "address":"ul. G\u0142ogowska 131/133"
   },
   {
    "lat":52.4118517,
    "lon":16.863382099999999,
    "name":"Muzeum Wiedzy o \u015arodowisku, Zak\u0142ad Bada\u0144 \u015arodowiska Rolniczego i Le\u015bnego PAN",
    "address":"ul. Bukowska 19"
   },
   {
    "lat":52.385301699999999,
    "lon":16.9974454,
    "name":"Centrum Wycieczkowe Kompanii Piwowarskiej",
    "address":"ul. Szwajcarska 11"
   },
   {
    "lat":false,
    "lon":false,
    "name":"Krypta Zas\u0142u\u017conych Wielkopolan",
    "address":"ul. \u015aw.Wojciech 1"
   },
   {
    "lat":52.411337099999997,
    "lon":16.947621099999999,
    "name":"Podziemia Katedry Pozna\u0144skiej",
    "address":"Ostr\u00f3w Tumski"
   },
   {
    "lat":52.416517949999999,
    "lon":16.917476400000002,
    "name":"Salon Muzyczny Feliksa Nowowiejskiego",
    "address":"al. Wielkopolska 11"
   },
   {
    "lat":52.409262599999998,
    "lon":16.930624699999999,
    "name":"Rogalowe Muzeum Poznania",
    "address":"Stary Rynek 41/2"
   },
   {
    "lat":52.425276850000003,
    "lon":16.946438166157002,
    "name":"Muzeum Unitry",
    "address":"ul. Prze\u0142ajowa 4"
   },
   {
    "lat":52.4122603,
    "lon":16.9535564,
    "name":"Brama Poznania ICHOT",
    "address":"ul. Gda\u0144ska 2"
   }
  ],
  "count":32
 }
]